{
  "RECORDS": [
    {
      "pid": 1,
      "pname": "北京",
      "id": 2,
      "cname": "北京市",
      "lng": "116.405285",
      "lat": "39.904989"
    },
    {
      "pid": 19,
      "pname": "天津",
      "id": 20,
      "cname": "天津市",
      "lng": "117.190182",
      "lat": "39.125596"
    },
    {
      "pid": 37,
      "pname": "河北省",
      "id": 38,
      "cname": "石家庄市",
      "lng": "114.502461",
      "lat": "38.045474"
    },
    {
      "pid": 37,
      "pname": "河北省",
      "id": 61,
      "cname": "唐山市",
      "lng": "118.175393",
      "lat": "39.635113"
    },
    {
      "pid": 37,
      "pname": "河北省",
      "id": 76,
      "cname": "秦皇岛市",
      "lng": "119.586579",
      "lat": "39.942531"
    },
    {
      "pid": 37,
      "pname": "河北省",
      "id": 84,
      "cname": "邯郸市",
      "lng": "114.490686",
      "lat": "36.612273"
    },
    {
      "pid": 37,
      "pname": "河北省",
      "id": 104,
      "cname": "邢台市",
      "lng": "114.508851",
      "lat": "37.0682"
    },
    {
      "pid": 37,
      "pname": "河北省",
      "id": 124,
      "cname": "保定市",
      "lng": "115.482331",
      "lat": "38.867657"
    },
    {
      "pid": 37,
      "pname": "河北省",
      "id": 150,
      "cname": "张家口市",
      "lng": "114.884091",
      "lat": "40.811901"
    },
    {
      "pid": 37,
      "pname": "河北省",
      "id": 168,
      "cname": "承德市",
      "lng": "117.939152",
      "lat": "40.976204"
    },
    {
      "pid": 37,
      "pname": "河北省",
      "id": 180,
      "cname": "沧州市",
      "lng": "116.857461",
      "lat": "38.310582"
    },
    {
      "pid": 37,
      "pname": "河北省",
      "id": 197,
      "cname": "廊坊市",
      "lng": "116.713873",
      "lat": "39.529244"
    },
    {
      "pid": 37,
      "pname": "河北省",
      "id": 208,
      "cname": "衡水市",
      "lng": "115.665993",
      "lat": "37.735097"
    },
    {
      "pid": 220,
      "pname": "山西省",
      "id": 221,
      "cname": "太原市",
      "lng": "112.549248",
      "lat": "37.857014"
    },
    {
      "pid": 220,
      "pname": "山西省",
      "id": 232,
      "cname": "大同市",
      "lng": "113.295259",
      "lat": "40.09031"
    },
    {
      "pid": 220,
      "pname": "山西省",
      "id": 244,
      "cname": "阳泉市",
      "lng": "113.583285",
      "lat": "37.861188"
    },
    {
      "pid": 220,
      "pname": "山西省",
      "id": 250,
      "cname": "长治市",
      "lng": "113.113556",
      "lat": "36.191112"
    },
    {
      "pid": 220,
      "pname": "山西省",
      "id": 264,
      "cname": "晋城市",
      "lng": "112.851274",
      "lat": "35.497553"
    },
    {
      "pid": 220,
      "pname": "山西省",
      "id": 271,
      "cname": "朔州市",
      "lng": "112.433387",
      "lat": "39.331261"
    },
    {
      "pid": 220,
      "pname": "山西省",
      "id": 278,
      "cname": "晋中市",
      "lng": "112.736465",
      "lat": "37.696495"
    },
    {
      "pid": 220,
      "pname": "山西省",
      "id": 290,
      "cname": "运城市",
      "lng": "111.003957",
      "lat": "35.022778"
    },
    {
      "pid": 220,
      "pname": "山西省",
      "id": 304,
      "cname": "忻州市",
      "lng": "112.733538",
      "lat": "38.41769"
    },
    {
      "pid": 220,
      "pname": "山西省",
      "id": 319,
      "cname": "临汾市",
      "lng": "111.517973",
      "lat": "36.08415"
    },
    {
      "pid": 220,
      "pname": "山西省",
      "id": 337,
      "cname": "吕梁市",
      "lng": "111.134335",
      "lat": "37.524366"
    },
    {
      "pid": 351,
      "pname": "内蒙古自治区",
      "id": 352,
      "cname": "呼和浩特市",
      "lng": "111.670801",
      "lat": "40.818311"
    },
    {
      "pid": 351,
      "pname": "内蒙古自治区",
      "id": 362,
      "cname": "包头市",
      "lng": "109.840405",
      "lat": "40.658168"
    },
    {
      "pid": 351,
      "pname": "内蒙古自治区",
      "id": 372,
      "cname": "乌海市",
      "lng": "106.825563",
      "lat": "39.673734"
    },
    {
      "pid": 351,
      "pname": "内蒙古自治区",
      "id": 376,
      "cname": "赤峰市",
      "lng": "118.956806",
      "lat": "42.275317"
    },
    {
      "pid": 351,
      "pname": "内蒙古自治区",
      "id": 389,
      "cname": "通辽市",
      "lng": "122.263119",
      "lat": "43.617429"
    },
    {
      "pid": 351,
      "pname": "内蒙古自治区",
      "id": 398,
      "cname": "鄂尔多斯市",
      "lng": "109.99029",
      "lat": "39.817179"
    },
    {
      "pid": 351,
      "pname": "内蒙古自治区",
      "id": 407,
      "cname": "呼伦贝尔市",
      "lng": "119.758168",
      "lat": "49.215333"
    },
    {
      "pid": 351,
      "pname": "内蒙古自治区",
      "id": 422,
      "cname": "巴彦淖尔市",
      "lng": "107.416959",
      "lat": "40.757402"
    },
    {
      "pid": 351,
      "pname": "内蒙古自治区",
      "id": 430,
      "cname": "乌兰察布市",
      "lng": "113.114543",
      "lat": "41.034126"
    },
    {
      "pid": 351,
      "pname": "内蒙古自治区",
      "id": 442,
      "cname": "兴安盟",
      "lng": "122.070317",
      "lat": "46.076268"
    },
    {
      "pid": 351,
      "pname": "内蒙古自治区",
      "id": 449,
      "cname": "锡林郭勒盟",
      "lng": "116.090996",
      "lat": "43.944018"
    },
    {
      "pid": 351,
      "pname": "内蒙古自治区",
      "id": 462,
      "cname": "阿拉善盟",
      "lng": "105.706422",
      "lat": "38.844814"
    },
    {
      "pid": 466,
      "pname": "辽宁省",
      "id": 467,
      "cname": "沈阳市",
      "lng": "123.429096",
      "lat": "41.796767"
    },
    {
      "pid": 466,
      "pname": "辽宁省",
      "id": 481,
      "cname": "大连市",
      "lng": "121.618622",
      "lat": "38.91459"
    },
    {
      "pid": 466,
      "pname": "辽宁省",
      "id": 492,
      "cname": "鞍山市",
      "lng": "122.995632",
      "lat": "41.110626"
    },
    {
      "pid": 466,
      "pname": "辽宁省",
      "id": 500,
      "cname": "抚顺市",
      "lng": "123.921109",
      "lat": "41.875956"
    },
    {
      "pid": 466,
      "pname": "辽宁省",
      "id": 508,
      "cname": "本溪市",
      "lng": "123.770519",
      "lat": "41.297909"
    },
    {
      "pid": 466,
      "pname": "辽宁省",
      "id": 515,
      "cname": "丹东市",
      "lng": "124.383044",
      "lat": "40.124296"
    },
    {
      "pid": 466,
      "pname": "辽宁省",
      "id": 522,
      "cname": "锦州市",
      "lng": "121.135742",
      "lat": "41.119269"
    },
    {
      "pid": 466,
      "pname": "辽宁省",
      "id": 530,
      "cname": "营口市",
      "lng": "122.235151",
      "lat": "40.667432"
    },
    {
      "pid": 466,
      "pname": "辽宁省",
      "id": 537,
      "cname": "阜新市",
      "lng": "121.648962",
      "lat": "42.011796"
    },
    {
      "pid": 466,
      "pname": "辽宁省",
      "id": 545,
      "cname": "辽阳市",
      "lng": "123.18152",
      "lat": "41.269402"
    },
    {
      "pid": 466,
      "pname": "辽宁省",
      "id": 553,
      "cname": "盘锦市",
      "lng": "122.06957",
      "lat": "41.124484"
    },
    {
      "pid": 466,
      "pname": "辽宁省",
      "id": 558,
      "cname": "铁岭市",
      "lng": "123.844279",
      "lat": "42.290585"
    },
    {
      "pid": 466,
      "pname": "辽宁省",
      "id": 566,
      "cname": "朝阳市",
      "lng": "120.451176",
      "lat": "41.576758"
    },
    {
      "pid": 466,
      "pname": "辽宁省",
      "id": 574,
      "cname": "葫芦岛市",
      "lng": "120.856394",
      "lat": "40.755572"
    },
    {
      "pid": 466,
      "pname": "辽宁省",
      "id": 581,
      "cname": "金普新区",
      "lng": "121.789627",
      "lat": "39.055451"
    },
    {
      "pid": 585,
      "pname": "吉林省",
      "id": 586,
      "cname": "长春市",
      "lng": "125.3245",
      "lat": "43.886841"
    },
    {
      "pid": 585,
      "pname": "吉林省",
      "id": 597,
      "cname": "吉林市",
      "lng": "126.55302",
      "lat": "43.843577"
    },
    {
      "pid": 585,
      "pname": "吉林省",
      "id": 607,
      "cname": "四平市",
      "lng": "124.370785",
      "lat": "43.170344"
    },
    {
      "pid": 585,
      "pname": "吉林省",
      "id": 614,
      "cname": "辽源市",
      "lng": "125.145349",
      "lat": "42.902692"
    },
    {
      "pid": 585,
      "pname": "吉林省",
      "id": 619,
      "cname": "通化市",
      "lng": "125.936501",
      "lat": "41.721177"
    },
    {
      "pid": 585,
      "pname": "吉林省",
      "id": 627,
      "cname": "白山市",
      "lng": "126.427839",
      "lat": "41.942505"
    },
    {
      "pid": 585,
      "pname": "吉林省",
      "id": 634,
      "cname": "松原市",
      "lng": "124.823608",
      "lat": "45.118243"
    },
    {
      "pid": 585,
      "pname": "吉林省",
      "id": 640,
      "cname": "白城市",
      "lng": "122.841114",
      "lat": "45.619026"
    },
    {
      "pid": 585,
      "pname": "吉林省",
      "id": 646,
      "cname": "延边朝鲜族自治州",
      "lng": "129.513228",
      "lat": "42.904823"
    },
    {
      "pid": 655,
      "pname": "黑龙江省",
      "id": 656,
      "cname": "哈尔滨市",
      "lng": "126.642464",
      "lat": "45.756967"
    },
    {
      "pid": 655,
      "pname": "黑龙江省",
      "id": 675,
      "cname": "齐齐哈尔市",
      "lng": "123.953486",
      "lat": "47.348079"
    },
    {
      "pid": 655,
      "pname": "黑龙江省",
      "id": 692,
      "cname": "鸡西市",
      "lng": "130.975966",
      "lat": "45.300046"
    },
    {
      "pid": 655,
      "pname": "黑龙江省",
      "id": 702,
      "cname": "鹤岗市",
      "lng": "130.277487",
      "lat": "47.332085"
    },
    {
      "pid": 655,
      "pname": "黑龙江省",
      "id": 711,
      "cname": "双鸭山市",
      "lng": "131.157304",
      "lat": "46.643442"
    },
    {
      "pid": 655,
      "pname": "黑龙江省",
      "id": 720,
      "cname": "大庆市",
      "lng": "125.11272",
      "lat": "46.590734"
    },
    {
      "pid": 655,
      "pname": "黑龙江省",
      "id": 730,
      "cname": "伊春市",
      "lng": "128.899396",
      "lat": "47.724775"
    },
    {
      "pid": 655,
      "pname": "黑龙江省",
      "id": 748,
      "cname": "佳木斯市",
      "lng": "130.361634",
      "lat": "46.809606"
    },
    {
      "pid": 655,
      "pname": "黑龙江省",
      "id": 759,
      "cname": "七台河市",
      "lng": "131.015584",
      "lat": "45.771266"
    },
    {
      "pid": 655,
      "pname": "黑龙江省",
      "id": 764,
      "cname": "牡丹江市",
      "lng": "129.618602",
      "lat": "44.582962"
    },
    {
      "pid": 655,
      "pname": "黑龙江省",
      "id": 775,
      "cname": "黑河市",
      "lng": "127.499023",
      "lat": "50.249585"
    },
    {
      "pid": 655,
      "pname": "黑龙江省",
      "id": 782,
      "cname": "绥化市",
      "lng": "126.99293",
      "lat": "46.637393"
    },
    {
      "pid": 655,
      "pname": "黑龙江省",
      "id": 793,
      "cname": "大兴安岭地区",
      "lng": "124.711526",
      "lat": "52.335262"
    },
    {
      "pid": 801,
      "pname": "上海",
      "id": 802,
      "cname": "上海市",
      "lng": "121.472644",
      "lat": "31.231706"
    },
    {
      "pid": 820,
      "pname": "江苏省",
      "id": 821,
      "cname": "南京市",
      "lng": "118.767413",
      "lat": "32.041544"
    },
    {
      "pid": 820,
      "pname": "江苏省",
      "id": 833,
      "cname": "无锡市",
      "lng": "120.301663",
      "lat": "31.574729"
    },
    {
      "pid": 820,
      "pname": "江苏省",
      "id": 842,
      "cname": "徐州市",
      "lng": "117.184811",
      "lat": "34.261792"
    },
    {
      "pid": 820,
      "pname": "江苏省",
      "id": 853,
      "cname": "常州市",
      "lng": "119.946973",
      "lat": "31.772752"
    },
    {
      "pid": 820,
      "pname": "江苏省",
      "id": 861,
      "cname": "苏州市",
      "lng": "120.619585",
      "lat": "31.299379"
    },
    {
      "pid": 820,
      "pname": "江苏省",
      "id": 871,
      "cname": "南通市",
      "lng": "120.864608",
      "lat": "32.016212"
    },
    {
      "pid": 820,
      "pname": "江苏省",
      "id": 880,
      "cname": "连云港市",
      "lng": "119.178821",
      "lat": "34.600018"
    },
    {
      "pid": 820,
      "pname": "江苏省",
      "id": 887,
      "cname": "淮安市",
      "lng": "119.021265",
      "lat": "33.597506"
    },
    {
      "pid": 820,
      "pname": "江苏省",
      "id": 896,
      "cname": "盐城市",
      "lng": "120.139998",
      "lat": "33.377631"
    },
    {
      "pid": 820,
      "pname": "江苏省",
      "id": 906,
      "cname": "扬州市",
      "lng": "119.421003",
      "lat": "32.393159"
    },
    {
      "pid": 820,
      "pname": "江苏省",
      "id": 913,
      "cname": "镇江市",
      "lng": "119.452753",
      "lat": "32.204402"
    },
    {
      "pid": 820,
      "pname": "江苏省",
      "id": 920,
      "cname": "泰州市",
      "lng": "119.915176",
      "lat": "32.484882"
    },
    {
      "pid": 820,
      "pname": "江苏省",
      "id": 927,
      "cname": "宿迁市",
      "lng": "118.293328",
      "lat": "33.945154"
    },
    {
      "pid": 933,
      "pname": "浙江省",
      "id": 934,
      "cname": "杭州市",
      "lng": "120.153576",
      "lat": "30.287459"
    },
    {
      "pid": 933,
      "pname": "浙江省",
      "id": 948,
      "cname": "宁波市",
      "lng": "121.549792",
      "lat": "29.868388"
    },
    {
      "pid": 933,
      "pname": "浙江省",
      "id": 960,
      "cname": "温州市",
      "lng": "120.672111",
      "lat": "28.000575"
    },
    {
      "pid": 933,
      "pname": "浙江省",
      "id": 972,
      "cname": "嘉兴市",
      "lng": "120.750865",
      "lat": "30.762653"
    },
    {
      "pid": 933,
      "pname": "浙江省",
      "id": 980,
      "cname": "湖州市",
      "lng": "120.102398",
      "lat": "30.867198"
    },
    {
      "pid": 933,
      "pname": "浙江省",
      "id": 986,
      "cname": "绍兴市",
      "lng": "120.582112",
      "lat": "29.997117"
    },
    {
      "pid": 933,
      "pname": "浙江省",
      "id": 993,
      "cname": "金华市",
      "lng": "119.649506",
      "lat": "29.089524"
    },
    {
      "pid": 933,
      "pname": "浙江省",
      "id": 1003,
      "cname": "衢州市",
      "lng": "118.87263",
      "lat": "28.941708"
    },
    {
      "pid": 933,
      "pname": "浙江省",
      "id": 1010,
      "cname": "舟山市",
      "lng": "122.106863",
      "lat": "30.016028"
    },
    {
      "pid": 933,
      "pname": "浙江省",
      "id": 1015,
      "cname": "台州市",
      "lng": "121.428599",
      "lat": "28.661378"
    },
    {
      "pid": 933,
      "pname": "浙江省",
      "id": 1025,
      "cname": "丽水市",
      "lng": "119.921786",
      "lat": "28.451993"
    },
    {
      "pid": 933,
      "pname": "浙江省",
      "id": 1035,
      "cname": "舟山群岛新区",
      "lng": "122.317657",
      "lat": "29.813242"
    },
    {
      "pid": 1046,
      "pname": "安徽省",
      "id": 1047,
      "cname": "合肥市",
      "lng": "117.283042",
      "lat": "31.86119"
    },
    {
      "pid": 1046,
      "pname": "安徽省",
      "id": 1057,
      "cname": "芜湖市",
      "lng": "118.376451",
      "lat": "31.326319"
    },
    {
      "pid": 1046,
      "pname": "安徽省",
      "id": 1066,
      "cname": "蚌埠市",
      "lng": "117.36237",
      "lat": "32.934037"
    },
    {
      "pid": 1046,
      "pname": "安徽省",
      "id": 1074,
      "cname": "淮南市",
      "lng": "117.025449",
      "lat": "32.645947"
    },
    {
      "pid": 1046,
      "pname": "安徽省",
      "id": 1081,
      "cname": "马鞍山市",
      "lng": "118.507906",
      "lat": "31.689362"
    },
    {
      "pid": 1046,
      "pname": "安徽省",
      "id": 1088,
      "cname": "淮北市",
      "lng": "116.794664",
      "lat": "33.971707"
    },
    {
      "pid": 1046,
      "pname": "安徽省",
      "id": 1093,
      "cname": "铜陵市",
      "lng": "117.816576",
      "lat": "30.929935"
    },
    {
      "pid": 1046,
      "pname": "安徽省",
      "id": 1098,
      "cname": "安庆市",
      "lng": "117.053571",
      "lat": "30.524816"
    },
    {
      "pid": 1046,
      "pname": "安徽省",
      "id": 1110,
      "cname": "黄山市",
      "lng": "118.317325",
      "lat": "29.709239"
    },
    {
      "pid": 1046,
      "pname": "安徽省",
      "id": 1118,
      "cname": "滁州市",
      "lng": "118.316264",
      "lat": "32.303627"
    },
    {
      "pid": 1046,
      "pname": "安徽省",
      "id": 1127,
      "cname": "阜阳市",
      "lng": "115.819729",
      "lat": "32.896969"
    },
    {
      "pid": 1046,
      "pname": "安徽省",
      "id": 1136,
      "cname": "宿州市",
      "lng": "116.984084",
      "lat": "33.633891"
    },
    {
      "pid": 1046,
      "pname": "安徽省",
      "id": 1142,
      "cname": "六安市",
      "lng": "116.507676",
      "lat": "31.752889"
    },
    {
      "pid": 1046,
      "pname": "安徽省",
      "id": 1150,
      "cname": "亳州市",
      "lng": "115.782939",
      "lat": "33.869338"
    },
    {
      "pid": 1046,
      "pname": "安徽省",
      "id": 1155,
      "cname": "池州市",
      "lng": "117.489157",
      "lat": "30.656037"
    },
    {
      "pid": 1046,
      "pname": "安徽省",
      "id": 1160,
      "cname": "宣城市",
      "lng": "118.757995",
      "lat": "30.945667"
    },
    {
      "pid": 1168,
      "pname": "福建省",
      "id": 1169,
      "cname": "福州市",
      "lng": "119.306239",
      "lat": "26.075302"
    },
    {
      "pid": 1168,
      "pname": "福建省",
      "id": 1183,
      "cname": "厦门市",
      "lng": "118.11022",
      "lat": "24.490474"
    },
    {
      "pid": 1168,
      "pname": "福建省",
      "id": 1190,
      "cname": "莆田市",
      "lng": "119.007558",
      "lat": "25.431011"
    },
    {
      "pid": 1168,
      "pname": "福建省",
      "id": 1196,
      "cname": "三明市",
      "lng": "117.635001",
      "lat": "26.265444"
    },
    {
      "pid": 1168,
      "pname": "福建省",
      "id": 1209,
      "cname": "泉州市",
      "lng": "118.589421",
      "lat": "24.908853"
    },
    {
      "pid": 1168,
      "pname": "福建省",
      "id": 1222,
      "cname": "漳州市",
      "lng": "117.661801",
      "lat": "24.510897"
    },
    {
      "pid": 1168,
      "pname": "福建省",
      "id": 1234,
      "cname": "南平市",
      "lng": "118.178459",
      "lat": "26.635627"
    },
    {
      "pid": 1168,
      "pname": "福建省",
      "id": 1245,
      "cname": "龙岩市",
      "lng": "117.02978",
      "lat": "25.091603"
    },
    {
      "pid": 1168,
      "pname": "福建省",
      "id": 1253,
      "cname": "宁德市",
      "lng": "119.527082",
      "lat": "26.65924"
    },
    {
      "pid": 1263,
      "pname": "江西省",
      "id": 1264,
      "cname": "南昌市",
      "lng": "115.892151",
      "lat": "28.676493"
    },
    {
      "pid": 1263,
      "pname": "江西省",
      "id": 1274,
      "cname": "景德镇市",
      "lng": "117.214664",
      "lat": "29.29256"
    },
    {
      "pid": 1263,
      "pname": "江西省",
      "id": 1279,
      "cname": "萍乡市",
      "lng": "113.852186",
      "lat": "27.622946"
    },
    {
      "pid": 1263,
      "pname": "江西省",
      "id": 1285,
      "cname": "九江市",
      "lng": "115.992811",
      "lat": "29.712034"
    },
    {
      "pid": 1263,
      "pname": "江西省",
      "id": 1299,
      "cname": "新余市",
      "lng": "114.930835",
      "lat": "27.810834"
    },
    {
      "pid": 1263,
      "pname": "江西省",
      "id": 1302,
      "cname": "鹰潭市",
      "lng": "117.033838",
      "lat": "28.238638"
    },
    {
      "pid": 1263,
      "pname": "江西省",
      "id": 1306,
      "cname": "赣州市",
      "lng": "114.940278",
      "lat": "25.85097"
    },
    {
      "pid": 1263,
      "pname": "江西省",
      "id": 1325,
      "cname": "吉安市",
      "lng": "114.986373",
      "lat": "27.111699"
    },
    {
      "pid": 1263,
      "pname": "江西省",
      "id": 1339,
      "cname": "宜春市",
      "lng": "114.391136",
      "lat": "27.8043"
    },
    {
      "pid": 1263,
      "pname": "江西省",
      "id": 1350,
      "cname": "抚州市",
      "lng": "116.358351",
      "lat": "27.98385"
    },
    {
      "pid": 1263,
      "pname": "江西省",
      "id": 1362,
      "cname": "上饶市",
      "lng": "117.971185",
      "lat": "28.44442"
    },
    {
      "pid": 1375,
      "pname": "山东省",
      "id": 1376,
      "cname": "济南市",
      "lng": "117.000923",
      "lat": "36.675807"
    },
    {
      "pid": 1375,
      "pname": "山东省",
      "id": 1387,
      "cname": "青岛市",
      "lng": "120.369557",
      "lat": "36.094406"
    },
    {
      "pid": 1375,
      "pname": "山东省",
      "id": 1399,
      "cname": "淄博市",
      "lng": "118.047648",
      "lat": "36.814939"
    },
    {
      "pid": 1375,
      "pname": "山东省",
      "id": 1408,
      "cname": "枣庄市",
      "lng": "117.557964",
      "lat": "34.856424"
    },
    {
      "pid": 1375,
      "pname": "山东省",
      "id": 1415,
      "cname": "东营市",
      "lng": "118.4963",
      "lat": "37.461266"
    },
    {
      "pid": 1375,
      "pname": "山东省",
      "id": 1421,
      "cname": "烟台市",
      "lng": "121.391382",
      "lat": "37.539297"
    },
    {
      "pid": 1375,
      "pname": "山东省",
      "id": 1434,
      "cname": "潍坊市",
      "lng": "119.107078",
      "lat": "36.70925"
    },
    {
      "pid": 1375,
      "pname": "山东省",
      "id": 1447,
      "cname": "济宁市",
      "lng": "116.587245",
      "lat": "35.415393"
    },
    {
      "pid": 1375,
      "pname": "山东省",
      "id": 1459,
      "cname": "泰安市",
      "lng": "117.129063",
      "lat": "36.194968"
    },
    {
      "pid": 1375,
      "pname": "山东省",
      "id": 1466,
      "cname": "威海市",
      "lng": "122.116394",
      "lat": "37.509691"
    },
    {
      "pid": 1375,
      "pname": "山东省",
      "id": 1471,
      "cname": "日照市",
      "lng": "119.461208",
      "lat": "35.428588"
    },
    {
      "pid": 1375,
      "pname": "山东省",
      "id": 1476,
      "cname": "莱芜市",
      "lng": "117.677736",
      "lat": "36.214397"
    },
    {
      "pid": 1375,
      "pname": "山东省",
      "id": 1479,
      "cname": "临沂市",
      "lng": "118.326443",
      "lat": "35.065282"
    },
    {
      "pid": 1375,
      "pname": "山东省",
      "id": 1492,
      "cname": "德州市",
      "lng": "116.307428",
      "lat": "37.453968"
    },
    {
      "pid": 1375,
      "pname": "山东省",
      "id": 1504,
      "cname": "聊城市",
      "lng": "115.980367",
      "lat": "36.456013"
    },
    {
      "pid": 1375,
      "pname": "山东省",
      "id": 1513,
      "cname": "滨州市",
      "lng": "118.016974",
      "lat": "37.383542"
    },
    {
      "pid": 1375,
      "pname": "山东省",
      "id": 1522,
      "cname": "菏泽市",
      "lng": "115.469381",
      "lat": "35.246531"
    },
    {
      "pid": 1532,
      "pname": "河南省",
      "id": 1533,
      "cname": "郑州市",
      "lng": "113.665412",
      "lat": "34.757975"
    },
    {
      "pid": 1532,
      "pname": "河南省",
      "id": 1546,
      "cname": "开封市",
      "lng": "114.341447",
      "lat": "34.797049"
    },
    {
      "pid": 1532,
      "pname": "河南省",
      "id": 1556,
      "cname": "洛阳市",
      "lng": "112.434468",
      "lat": "34.663041"
    },
    {
      "pid": 1532,
      "pname": "河南省",
      "id": 1572,
      "cname": "平顶山市",
      "lng": "113.307718",
      "lat": "33.735241"
    },
    {
      "pid": 1532,
      "pname": "河南省",
      "id": 1583,
      "cname": "安阳市",
      "lng": "114.352482",
      "lat": "36.103442"
    },
    {
      "pid": 1532,
      "pname": "河南省",
      "id": 1593,
      "cname": "鹤壁市",
      "lng": "114.295444",
      "lat": "35.748236"
    },
    {
      "pid": 1532,
      "pname": "河南省",
      "id": 1599,
      "cname": "新乡市",
      "lng": "113.883991",
      "lat": "35.302616"
    },
    {
      "pid": 1532,
      "pname": "河南省",
      "id": 1612,
      "cname": "焦作市",
      "lng": "113.238266",
      "lat": "35.23904"
    },
    {
      "pid": 1532,
      "pname": "河南省",
      "id": 1623,
      "cname": "濮阳市",
      "lng": "115.041299",
      "lat": "35.768234"
    },
    {
      "pid": 1532,
      "pname": "河南省",
      "id": 1630,
      "cname": "许昌市",
      "lng": "113.826063",
      "lat": "34.022956"
    },
    {
      "pid": 1532,
      "pname": "河南省",
      "id": 1637,
      "cname": "漯河市",
      "lng": "114.026405",
      "lat": "33.575855"
    },
    {
      "pid": 1532,
      "pname": "河南省",
      "id": 1643,
      "cname": "三门峡市",
      "lng": "111.194099",
      "lat": "34.777338"
    },
    {
      "pid": 1532,
      "pname": "河南省",
      "id": 1650,
      "cname": "南阳市",
      "lng": "112.540918",
      "lat": "32.999082"
    },
    {
      "pid": 1532,
      "pname": "河南省",
      "id": 1664,
      "cname": "商丘市",
      "lng": "115.650497",
      "lat": "34.437054"
    },
    {
      "pid": 1532,
      "pname": "河南省",
      "id": 1674,
      "cname": "信阳市",
      "lng": "114.075031",
      "lat": "32.123274"
    },
    {
      "pid": 1532,
      "pname": "河南省",
      "id": 1685,
      "cname": "周口市",
      "lng": "114.649653",
      "lat": "33.620357"
    },
    {
      "pid": 1532,
      "pname": "河南省",
      "id": 1696,
      "cname": "驻马店市",
      "lng": "114.024736",
      "lat": "32.980169"
    },
    {
      "pid": 1532,
      "pname": "河南省",
      "id": 1707,
      "cname": "直辖县级",
      "lng": "113.665412",
      "lat": "34.757975"
    },
    {
      "pid": 1709,
      "pname": "湖北省",
      "id": 1710,
      "cname": "武汉市",
      "lng": "114.298572",
      "lat": "30.584355"
    },
    {
      "pid": 1709,
      "pname": "湖北省",
      "id": 1724,
      "cname": "黄石市",
      "lng": "115.077048",
      "lat": "30.220074"
    },
    {
      "pid": 1709,
      "pname": "湖北省",
      "id": 1731,
      "cname": "十堰市",
      "lng": "110.785239",
      "lat": "32.647017"
    },
    {
      "pid": 1709,
      "pname": "湖北省",
      "id": 1740,
      "cname": "宜昌市",
      "lng": "111.290843",
      "lat": "30.702636"
    },
    {
      "pid": 1709,
      "pname": "湖北省",
      "id": 1754,
      "cname": "襄阳市",
      "lng": "112.144146",
      "lat": "32.042426"
    },
    {
      "pid": 1709,
      "pname": "湖北省",
      "id": 1764,
      "cname": "鄂州市",
      "lng": "114.890593",
      "lat": "30.396536"
    },
    {
      "pid": 1709,
      "pname": "湖北省",
      "id": 1768,
      "cname": "荆门市",
      "lng": "112.204251",
      "lat": "31.03542"
    },
    {
      "pid": 1709,
      "pname": "湖北省",
      "id": 1774,
      "cname": "孝感市",
      "lng": "113.926655",
      "lat": "30.926423"
    },
    {
      "pid": 1709,
      "pname": "湖北省",
      "id": 1782,
      "cname": "荆州市",
      "lng": "112.23813",
      "lat": "30.326857"
    },
    {
      "pid": 1709,
      "pname": "湖北省",
      "id": 1791,
      "cname": "黄冈市",
      "lng": "114.879365",
      "lat": "30.447711"
    },
    {
      "pid": 1709,
      "pname": "湖北省",
      "id": 1802,
      "cname": "咸宁市",
      "lng": "114.328963",
      "lat": "29.832798"
    },
    {
      "pid": 1709,
      "pname": "湖北省",
      "id": 1809,
      "cname": "随州市",
      "lng": "113.37377",
      "lat": "31.717497"
    },
    {
      "pid": 1709,
      "pname": "湖北省",
      "id": 1813,
      "cname": "恩施土家族苗族自治州",
      "lng": "109.48699",
      "lat": "30.283114"
    },
    {
      "pid": 1709,
      "pname": "湖北省",
      "id": 1822,
      "cname": "直辖县级",
      "lng": "114.298572",
      "lat": "30.584355"
    },
    {
      "pid": 1827,
      "pname": "湖南省",
      "id": 1828,
      "cname": "长沙市",
      "lng": "112.982279",
      "lat": "28.19409"
    },
    {
      "pid": 1827,
      "pname": "湖南省",
      "id": 1838,
      "cname": "株洲市",
      "lng": "113.151737",
      "lat": "27.835806"
    },
    {
      "pid": 1827,
      "pname": "湖南省",
      "id": 1848,
      "cname": "湘潭市",
      "lng": "112.925083",
      "lat": "27.846725"
    },
    {
      "pid": 1827,
      "pname": "湖南省",
      "id": 1854,
      "cname": "衡阳市",
      "lng": "112.607693",
      "lat": "26.900358"
    },
    {
      "pid": 1827,
      "pname": "湖南省",
      "id": 1867,
      "cname": "邵阳市",
      "lng": "111.46923",
      "lat": "27.237842"
    },
    {
      "pid": 1827,
      "pname": "湖南省",
      "id": 1880,
      "cname": "岳阳市",
      "lng": "113.132855",
      "lat": "29.37029"
    },
    {
      "pid": 1827,
      "pname": "湖南省",
      "id": 1890,
      "cname": "常德市",
      "lng": "111.691347",
      "lat": "29.040225"
    },
    {
      "pid": 1827,
      "pname": "湖南省",
      "id": 1900,
      "cname": "张家界市",
      "lng": "110.479921",
      "lat": "29.127401"
    },
    {
      "pid": 1827,
      "pname": "湖南省",
      "id": 1905,
      "cname": "益阳市",
      "lng": "112.355042",
      "lat": "28.570066"
    },
    {
      "pid": 1827,
      "pname": "湖南省",
      "id": 1912,
      "cname": "郴州市",
      "lng": "113.032067",
      "lat": "25.793589"
    },
    {
      "pid": 1827,
      "pname": "湖南省",
      "id": 1924,
      "cname": "永州市",
      "lng": "111.608019",
      "lat": "26.434516"
    },
    {
      "pid": 1827,
      "pname": "湖南省",
      "id": 1936,
      "cname": "怀化市",
      "lng": "109.97824",
      "lat": "27.550082"
    },
    {
      "pid": 1827,
      "pname": "湖南省",
      "id": 1949,
      "cname": "娄底市",
      "lng": "112.008497",
      "lat": "27.728136"
    },
    {
      "pid": 1827,
      "pname": "湖南省",
      "id": 1955,
      "cname": "湘西土家族苗族自治州",
      "lng": "109.739735",
      "lat": "28.314296"
    },
    {
      "pid": 1964,
      "pname": "广东省",
      "id": 1965,
      "cname": "广州市",
      "lng": "113.280637",
      "lat": "23.125178"
    },
    {
      "pid": 1964,
      "pname": "广东省",
      "id": 1977,
      "cname": "韶关市",
      "lng": "113.591544",
      "lat": "24.801322"
    },
    {
      "pid": 1964,
      "pname": "广东省",
      "id": 1988,
      "cname": "深圳市",
      "lng": "114.085947",
      "lat": "22.547"
    },
    {
      "pid": 1964,
      "pname": "广东省",
      "id": 1999,
      "cname": "珠海市",
      "lng": "113.552724",
      "lat": "22.255899"
    },
    {
      "pid": 1964,
      "pname": "广东省",
      "id": 2003,
      "cname": "汕头市",
      "lng": "116.708463",
      "lat": "23.37102"
    },
    {
      "pid": 1964,
      "pname": "广东省",
      "id": 2011,
      "cname": "佛山市",
      "lng": "113.122717",
      "lat": "23.028762"
    },
    {
      "pid": 1964,
      "pname": "广东省",
      "id": 2017,
      "cname": "江门市",
      "lng": "113.094942",
      "lat": "22.590431"
    },
    {
      "pid": 1964,
      "pname": "广东省",
      "id": 2025,
      "cname": "湛江市",
      "lng": "110.405529",
      "lat": "21.195338"
    },
    {
      "pid": 1964,
      "pname": "广东省",
      "id": 2035,
      "cname": "茂名市",
      "lng": "110.919229",
      "lat": "21.659751"
    },
    {
      "pid": 1964,
      "pname": "广东省",
      "id": 2041,
      "cname": "肇庆市",
      "lng": "112.472529",
      "lat": "23.051546"
    },
    {
      "pid": 1964,
      "pname": "广东省",
      "id": 2050,
      "cname": "惠州市",
      "lng": "114.412599",
      "lat": "23.079404"
    },
    {
      "pid": 1964,
      "pname": "广东省",
      "id": 2056,
      "cname": "梅州市",
      "lng": "116.117582",
      "lat": "24.299112"
    },
    {
      "pid": 1964,
      "pname": "广东省",
      "id": 2065,
      "cname": "汕尾市",
      "lng": "115.364238",
      "lat": "22.774485"
    },
    {
      "pid": 1964,
      "pname": "广东省",
      "id": 2070,
      "cname": "河源市",
      "lng": "114.697802",
      "lat": "23.746266"
    },
    {
      "pid": 1964,
      "pname": "广东省",
      "id": 2077,
      "cname": "阳江市",
      "lng": "111.975107",
      "lat": "21.859222"
    },
    {
      "pid": 1964,
      "pname": "广东省",
      "id": 2082,
      "cname": "清远市",
      "lng": "113.036779",
      "lat": "23.704188"
    },
    {
      "pid": 1964,
      "pname": "广东省",
      "id": 2091,
      "cname": "东莞市",
      "lng": "113.760234",
      "lat": "23.048884"
    },
    {
      "pid": 1964,
      "pname": "广东省",
      "id": 2123,
      "cname": "中山市",
      "lng": "113.382391",
      "lat": "22.521113"
    },
    {
      "pid": 1964,
      "pname": "广东省",
      "id": 2146,
      "cname": "潮州市",
      "lng": "116.632301",
      "lat": "23.661701"
    },
    {
      "pid": 1964,
      "pname": "广东省",
      "id": 2150,
      "cname": "揭阳市",
      "lng": "116.355733",
      "lat": "23.543778"
    },
    {
      "pid": 1964,
      "pname": "广东省",
      "id": 2156,
      "cname": "云浮市",
      "lng": "112.044439",
      "lat": "22.929801"
    },
    {
      "pid": 2162,
      "pname": "广西壮族自治区",
      "id": 2163,
      "cname": "南宁市",
      "lng": "108.320004",
      "lat": "22.82402"
    },
    {
      "pid": 2162,
      "pname": "广西壮族自治区",
      "id": 2177,
      "cname": "柳州市",
      "lng": "109.411703",
      "lat": "24.314617"
    },
    {
      "pid": 2162,
      "pname": "广西壮族自治区",
      "id": 2189,
      "cname": "桂林市",
      "lng": "110.299121",
      "lat": "25.274215"
    },
    {
      "pid": 2162,
      "pname": "广西壮族自治区",
      "id": 2207,
      "cname": "梧州市",
      "lng": "111.316229",
      "lat": "23.472309"
    },
    {
      "pid": 2162,
      "pname": "广西壮族自治区",
      "id": 2215,
      "cname": "北海市",
      "lng": "109.119254",
      "lat": "21.473343"
    },
    {
      "pid": 2162,
      "pname": "广西壮族自治区",
      "id": 2220,
      "cname": "防城港市",
      "lng": "108.345478",
      "lat": "21.614631"
    },
    {
      "pid": 2162,
      "pname": "广西壮族自治区",
      "id": 2225,
      "cname": "钦州市",
      "lng": "108.624175",
      "lat": "21.967127"
    },
    {
      "pid": 2162,
      "pname": "广西壮族自治区",
      "id": 2230,
      "cname": "贵港市",
      "lng": "109.602146",
      "lat": "23.0936"
    },
    {
      "pid": 2162,
      "pname": "广西壮族自治区",
      "id": 2236,
      "cname": "玉林市",
      "lng": "110.154393",
      "lat": "22.63136"
    },
    {
      "pid": 2162,
      "pname": "广西壮族自治区",
      "id": 2245,
      "cname": "百色市",
      "lng": "106.616285",
      "lat": "23.897742"
    },
    {
      "pid": 2162,
      "pname": "广西壮族自治区",
      "id": 2258,
      "cname": "贺州市",
      "lng": "111.552056",
      "lat": "24.414141"
    },
    {
      "pid": 2162,
      "pname": "广西壮族自治区",
      "id": 2264,
      "cname": "河池市",
      "lng": "108.062105",
      "lat": "24.695899"
    },
    {
      "pid": 2162,
      "pname": "广西壮族自治区",
      "id": 2276,
      "cname": "来宾市",
      "lng": "109.229772",
      "lat": "23.733766"
    },
    {
      "pid": 2162,
      "pname": "广西壮族自治区",
      "id": 2283,
      "cname": "崇左市",
      "lng": "107.353926",
      "lat": "22.404108"
    },
    {
      "pid": 2291,
      "pname": "海南省",
      "id": 2292,
      "cname": "海口市",
      "lng": "110.33119",
      "lat": "20.031971"
    },
    {
      "pid": 2291,
      "pname": "海南省",
      "id": 2297,
      "cname": "三亚市",
      "lng": "109.508268",
      "lat": "18.247872"
    },
    {
      "pid": 2291,
      "pname": "海南省",
      "id": 2302,
      "cname": "三沙市",
      "lng": "112.34882",
      "lat": "16.831039"
    },
    {
      "pid": 2291,
      "pname": "海南省",
      "id": 2306,
      "cname": "直辖县级",
      "lng": "109.503479",
      "lat": "18.739906"
    },
    {
      "pid": 2323,
      "pname": "重庆",
      "id": 2324,
      "cname": "重庆市",
      "lng": "106.504962",
      "lat": "29.533155"
    },
    {
      "pid": 2323,
      "pname": "重庆",
      "id": 2363,
      "cname": "两江新区",
      "lng": "106.463344",
      "lat": "29.729153"
    },
    {
      "pid": 2367,
      "pname": "四川省",
      "id": 2368,
      "cname": "成都市",
      "lng": "104.065735",
      "lat": "30.659462"
    },
    {
      "pid": 2367,
      "pname": "四川省",
      "id": 2388,
      "cname": "自贡市",
      "lng": "104.773447",
      "lat": "29.352765"
    },
    {
      "pid": 2367,
      "pname": "四川省",
      "id": 2395,
      "cname": "攀枝花市",
      "lng": "101.716007",
      "lat": "26.580446"
    },
    {
      "pid": 2367,
      "pname": "四川省",
      "id": 2401,
      "cname": "泸州市",
      "lng": "105.443348",
      "lat": "28.889138"
    },
    {
      "pid": 2367,
      "pname": "四川省",
      "id": 2409,
      "cname": "德阳市",
      "lng": "104.398651",
      "lat": "31.127991"
    },
    {
      "pid": 2367,
      "pname": "四川省",
      "id": 2416,
      "cname": "绵阳市",
      "lng": "104.741722",
      "lat": "31.46402"
    },
    {
      "pid": 2367,
      "pname": "四川省",
      "id": 2426,
      "cname": "广元市",
      "lng": "105.829757",
      "lat": "32.433668"
    },
    {
      "pid": 2367,
      "pname": "四川省",
      "id": 2434,
      "cname": "遂宁市",
      "lng": "105.571331",
      "lat": "30.513311"
    },
    {
      "pid": 2367,
      "pname": "四川省",
      "id": 2440,
      "cname": "内江市",
      "lng": "105.066138",
      "lat": "29.58708"
    },
    {
      "pid": 2367,
      "pname": "四川省",
      "id": 2446,
      "cname": "乐山市",
      "lng": "103.761263",
      "lat": "29.582024"
    },
    {
      "pid": 2367,
      "pname": "四川省",
      "id": 2458,
      "cname": "南充市",
      "lng": "106.082974",
      "lat": "30.795281"
    },
    {
      "pid": 2367,
      "pname": "四川省",
      "id": 2468,
      "cname": "眉山市",
      "lng": "103.831788",
      "lat": "30.048318"
    },
    {
      "pid": 2367,
      "pname": "四川省",
      "id": 2475,
      "cname": "宜宾市",
      "lng": "104.630825",
      "lat": "28.760189"
    },
    {
      "pid": 2367,
      "pname": "四川省",
      "id": 2486,
      "cname": "广安市",
      "lng": "106.633369",
      "lat": "30.456398"
    },
    {
      "pid": 2367,
      "pname": "四川省",
      "id": 2493,
      "cname": "达州市",
      "lng": "107.502262",
      "lat": "31.209484"
    },
    {
      "pid": 2367,
      "pname": "四川省",
      "id": 2501,
      "cname": "雅安市",
      "lng": "103.001033",
      "lat": "29.987722"
    },
    {
      "pid": 2367,
      "pname": "四川省",
      "id": 2510,
      "cname": "巴中市",
      "lng": "106.753669",
      "lat": "31.858809"
    },
    {
      "pid": 2367,
      "pname": "四川省",
      "id": 2516,
      "cname": "资阳市",
      "lng": "104.641917",
      "lat": "30.122211"
    },
    {
      "pid": 2367,
      "pname": "四川省",
      "id": 2521,
      "cname": "阿坝藏族羌族自治州",
      "lng": "102.221374",
      "lat": "31.899792"
    },
    {
      "pid": 2367,
      "pname": "四川省",
      "id": 2535,
      "cname": "甘孜藏族自治州",
      "lng": "101.963815",
      "lat": "30.050663"
    },
    {
      "pid": 2367,
      "pname": "四川省",
      "id": 2554,
      "cname": "凉山彝族自治州",
      "lng": "102.258746",
      "lat": "27.886762"
    },
    {
      "pid": 2572,
      "pname": "贵州省",
      "id": 2573,
      "cname": "贵阳市",
      "lng": "106.713478",
      "lat": "26.578343"
    },
    {
      "pid": 2572,
      "pname": "贵州省",
      "id": 2584,
      "cname": "六盘水市",
      "lng": "104.846743",
      "lat": "26.584643"
    },
    {
      "pid": 2572,
      "pname": "贵州省",
      "id": 2589,
      "cname": "遵义市",
      "lng": "106.937265",
      "lat": "27.706626"
    },
    {
      "pid": 2572,
      "pname": "贵州省",
      "id": 2604,
      "cname": "安顺市",
      "lng": "105.932188",
      "lat": "26.245544"
    },
    {
      "pid": 2572,
      "pname": "贵州省",
      "id": 2611,
      "cname": "毕节市",
      "lng": "105.28501",
      "lat": "27.301693"
    },
    {
      "pid": 2572,
      "pname": "贵州省",
      "id": 2620,
      "cname": "铜仁市",
      "lng": "109.191555",
      "lat": "27.718346"
    },
    {
      "pid": 2572,
      "pname": "贵州省",
      "id": 2631,
      "cname": "黔西南布依族苗族自治州",
      "lng": "104.897971",
      "lat": "25.08812"
    },
    {
      "pid": 2572,
      "pname": "贵州省",
      "id": 2640,
      "cname": "黔东南苗族侗族自治州",
      "lng": "107.977488",
      "lat": "26.583352"
    },
    {
      "pid": 2572,
      "pname": "贵州省",
      "id": 2657,
      "cname": "黔南布依族苗族自治州",
      "lng": "107.517156",
      "lat": "26.258219"
    },
    {
      "pid": 2670,
      "pname": "云南省",
      "id": 2671,
      "cname": "昆明市",
      "lng": "102.712251",
      "lat": "25.040609"
    },
    {
      "pid": 2670,
      "pname": "云南省",
      "id": 2686,
      "cname": "曲靖市",
      "lng": "103.797851",
      "lat": "25.501557"
    },
    {
      "pid": 2670,
      "pname": "云南省",
      "id": 2696,
      "cname": "玉溪市",
      "lng": "102.543907",
      "lat": "24.350461"
    },
    {
      "pid": 2670,
      "pname": "云南省",
      "id": 2706,
      "cname": "保山市",
      "lng": "99.167133",
      "lat": "25.111802"
    },
    {
      "pid": 2670,
      "pname": "云南省",
      "id": 2712,
      "cname": "昭通市",
      "lng": "103.717216",
      "lat": "27.336999"
    },
    {
      "pid": 2670,
      "pname": "云南省",
      "id": 2724,
      "cname": "丽江市",
      "lng": "100.233026",
      "lat": "26.872108"
    },
    {
      "pid": 2670,
      "pname": "云南省",
      "id": 2730,
      "cname": "普洱市",
      "lng": "100.972344",
      "lat": "22.777321"
    },
    {
      "pid": 2670,
      "pname": "云南省",
      "id": 2741,
      "cname": "临沧市",
      "lng": "100.08697",
      "lat": "23.886567"
    },
    {
      "pid": 2670,
      "pname": "云南省",
      "id": 2750,
      "cname": "楚雄彝族自治州",
      "lng": "101.546046",
      "lat": "25.041988"
    },
    {
      "pid": 2670,
      "pname": "云南省",
      "id": 2761,
      "cname": "红河哈尼族彝族自治州",
      "lng": "103.384182",
      "lat": "23.366775"
    },
    {
      "pid": 2670,
      "pname": "云南省",
      "id": 2775,
      "cname": "文山壮族苗族自治州",
      "lng": "104.24401",
      "lat": "23.36951"
    },
    {
      "pid": 2670,
      "pname": "云南省",
      "id": 2784,
      "cname": "西双版纳傣族自治州",
      "lng": "100.797941",
      "lat": "22.001724"
    },
    {
      "pid": 2670,
      "pname": "云南省",
      "id": 2788,
      "cname": "大理白族自治州",
      "lng": "100.240037",
      "lat": "25.592765"
    },
    {
      "pid": 2670,
      "pname": "云南省",
      "id": 2801,
      "cname": "德宏傣族景颇族自治州",
      "lng": "98.578363",
      "lat": "24.436694"
    },
    {
      "pid": 2670,
      "pname": "云南省",
      "id": 2807,
      "cname": "怒江傈僳族自治州",
      "lng": "98.854304",
      "lat": "25.850949"
    },
    {
      "pid": 2670,
      "pname": "云南省",
      "id": 2812,
      "cname": "迪庆藏族自治州",
      "lng": "99.706463",
      "lat": "27.826853"
    },
    {
      "pid": 2816,
      "pname": "西藏自治区",
      "id": 2817,
      "cname": "拉萨市",
      "lng": "91.132212",
      "lat": "29.660361"
    },
    {
      "pid": 2816,
      "pname": "西藏自治区",
      "id": 2826,
      "cname": "日喀则市",
      "lng": "88.884874",
      "lat": "29.263792"
    },
    {
      "pid": 2816,
      "pname": "西藏自治区",
      "id": 2845,
      "cname": "昌都市",
      "lng": "97.178452",
      "lat": "31.136875"
    },
    {
      "pid": 2816,
      "pname": "西藏自治区",
      "id": 2857,
      "cname": "山南地区",
      "lng": "91.766529",
      "lat": "29.236023"
    },
    {
      "pid": 2816,
      "pname": "西藏自治区",
      "id": 2870,
      "cname": "那曲地区",
      "lng": "92.060214",
      "lat": "31.476004"
    },
    {
      "pid": 2816,
      "pname": "西藏自治区",
      "id": 2882,
      "cname": "阿里地区",
      "lng": "80.105498",
      "lat": "32.503187"
    },
    {
      "pid": 2816,
      "pname": "西藏自治区",
      "id": 2890,
      "cname": "林芝地区",
      "lng": "94.362348",
      "lat": "29.654693"
    },
    {
      "pid": 2898,
      "pname": "陕西省",
      "id": 2899,
      "cname": "西安市",
      "lng": "108.948024",
      "lat": "34.263161"
    },
    {
      "pid": 2898,
      "pname": "陕西省",
      "id": 2913,
      "cname": "铜川市",
      "lng": "108.963122",
      "lat": "34.90892"
    },
    {
      "pid": 2898,
      "pname": "陕西省",
      "id": 2918,
      "cname": "宝鸡市",
      "lng": "107.14487",
      "lat": "34.369315"
    },
    {
      "pid": 2898,
      "pname": "陕西省",
      "id": 2931,
      "cname": "咸阳市",
      "lng": "108.705117",
      "lat": "34.333439"
    },
    {
      "pid": 2898,
      "pname": "陕西省",
      "id": 2946,
      "cname": "渭南市",
      "lng": "109.502882",
      "lat": "34.499381"
    },
    {
      "pid": 2898,
      "pname": "陕西省",
      "id": 2958,
      "cname": "延安市",
      "lng": "109.49081",
      "lat": "36.596537"
    },
    {
      "pid": 2898,
      "pname": "陕西省",
      "id": 2972,
      "cname": "汉中市",
      "lng": "107.028621",
      "lat": "33.077668"
    },
    {
      "pid": 2898,
      "pname": "陕西省",
      "id": 2984,
      "cname": "榆林市",
      "lng": "109.741193",
      "lat": "38.290162"
    },
    {
      "pid": 2898,
      "pname": "陕西省",
      "id": 2997,
      "cname": "安康市",
      "lng": "109.029273",
      "lat": "32.6903"
    },
    {
      "pid": 2898,
      "pname": "陕西省",
      "id": 3008,
      "cname": "商洛市",
      "lng": "109.939776",
      "lat": "33.868319"
    },
    {
      "pid": 2898,
      "pname": "陕西省",
      "id": 3016,
      "cname": "西咸新区",
      "lng": "108.810654",
      "lat": "34.307144"
    },
    {
      "pid": 3022,
      "pname": "甘肃省",
      "id": 3023,
      "cname": "兰州市",
      "lng": "103.823557",
      "lat": "36.058039"
    },
    {
      "pid": 3022,
      "pname": "甘肃省",
      "id": 3032,
      "cname": "嘉峪关市",
      "lng": "98.277304",
      "lat": "39.786529"
    },
    {
      "pid": 3022,
      "pname": "甘肃省",
      "id": 3036,
      "cname": "金昌市",
      "lng": "102.187888",
      "lat": "38.514238"
    },
    {
      "pid": 3022,
      "pname": "甘肃省",
      "id": 3039,
      "cname": "白银市",
      "lng": "104.173606",
      "lat": "36.54568"
    },
    {
      "pid": 3022,
      "pname": "甘肃省",
      "id": 3045,
      "cname": "天水市",
      "lng": "105.724998",
      "lat": "34.578529"
    },
    {
      "pid": 3022,
      "pname": "甘肃省",
      "id": 3053,
      "cname": "武威市",
      "lng": "102.634697",
      "lat": "37.929996"
    },
    {
      "pid": 3022,
      "pname": "甘肃省",
      "id": 3058,
      "cname": "张掖市",
      "lng": "100.455472",
      "lat": "38.932897"
    },
    {
      "pid": 3022,
      "pname": "甘肃省",
      "id": 3065,
      "cname": "平凉市",
      "lng": "106.684691",
      "lat": "35.54279"
    },
    {
      "pid": 3022,
      "pname": "甘肃省",
      "id": 3073,
      "cname": "酒泉市",
      "lng": "98.510795",
      "lat": "39.744023"
    },
    {
      "pid": 3022,
      "pname": "甘肃省",
      "id": 3081,
      "cname": "庆阳市",
      "lng": "107.638372",
      "lat": "35.734218"
    },
    {
      "pid": 3022,
      "pname": "甘肃省",
      "id": 3090,
      "cname": "定西市",
      "lng": "104.626294",
      "lat": "35.579578"
    },
    {
      "pid": 3022,
      "pname": "甘肃省",
      "id": 3098,
      "cname": "陇南市",
      "lng": "104.929379",
      "lat": "33.388598"
    },
    {
      "pid": 3022,
      "pname": "甘肃省",
      "id": 3108,
      "cname": "临夏回族自治州",
      "lng": "103.212006",
      "lat": "35.599446"
    },
    {
      "pid": 3022,
      "pname": "甘肃省",
      "id": 3117,
      "cname": "甘南藏族自治州",
      "lng": "102.911008",
      "lat": "34.986354"
    },
    {
      "pid": 3126,
      "pname": "青海省",
      "id": 3127,
      "cname": "西宁市",
      "lng": "101.778916",
      "lat": "36.623178"
    },
    {
      "pid": 3126,
      "pname": "青海省",
      "id": 3135,
      "cname": "海东市",
      "lng": "102.10327",
      "lat": "36.502916"
    },
    {
      "pid": 3126,
      "pname": "青海省",
      "id": 3142,
      "cname": "海北藏族自治州",
      "lng": "100.901059",
      "lat": "36.959435"
    },
    {
      "pid": 3126,
      "pname": "青海省",
      "id": 3147,
      "cname": "黄南藏族自治州",
      "lng": "102.019988",
      "lat": "35.517744"
    },
    {
      "pid": 3126,
      "pname": "青海省",
      "id": 3152,
      "cname": "海南藏族自治州",
      "lng": "100.619542",
      "lat": "36.280353"
    },
    {
      "pid": 3126,
      "pname": "青海省",
      "id": 3158,
      "cname": "果洛藏族自治州",
      "lng": "100.242143",
      "lat": "34.4736"
    },
    {
      "pid": 3126,
      "pname": "青海省",
      "id": 3165,
      "cname": "玉树藏族自治州",
      "lng": "97.008522",
      "lat": "33.004049"
    },
    {
      "pid": 3126,
      "pname": "青海省",
      "id": 3172,
      "cname": "海西蒙古族藏族自治州",
      "lng": "97.370785",
      "lat": "37.374663"
    },
    {
      "pid": 3178,
      "pname": "宁夏回族自治区",
      "id": 3179,
      "cname": "银川市",
      "lng": "106.278179",
      "lat": "38.46637"
    },
    {
      "pid": 3178,
      "pname": "宁夏回族自治区",
      "id": 3186,
      "cname": "石嘴山市",
      "lng": "106.376173",
      "lat": "39.01333"
    },
    {
      "pid": 3178,
      "pname": "宁夏回族自治区",
      "id": 3190,
      "cname": "吴忠市",
      "lng": "106.199409",
      "lat": "37.986165"
    },
    {
      "pid": 3178,
      "pname": "宁夏回族自治区",
      "id": 3196,
      "cname": "固原市",
      "lng": "106.285241",
      "lat": "36.004561"
    },
    {
      "pid": 3178,
      "pname": "宁夏回族自治区",
      "id": 3202,
      "cname": "中卫市",
      "lng": "105.189568",
      "lat": "37.514951"
    },
    {
      "pid": 3206,
      "pname": "新疆维吾尔自治区",
      "id": 3207,
      "cname": "乌鲁木齐市",
      "lng": "87.617733",
      "lat": "43.792818"
    },
    {
      "pid": 3206,
      "pname": "新疆维吾尔自治区",
      "id": 3216,
      "cname": "克拉玛依市",
      "lng": "84.873946",
      "lat": "45.595886"
    },
    {
      "pid": 3206,
      "pname": "新疆维吾尔自治区",
      "id": 3221,
      "cname": "吐鲁番地区",
      "lng": "89.184078",
      "lat": "42.947613"
    },
    {
      "pid": 3206,
      "pname": "新疆维吾尔自治区",
      "id": 3225,
      "cname": "哈密地区",
      "lng": "93.51316",
      "lat": "42.833248"
    },
    {
      "pid": 3206,
      "pname": "新疆维吾尔自治区",
      "id": 3229,
      "cname": "昌吉回族自治州",
      "lng": "87.304012",
      "lat": "44.014577"
    },
    {
      "pid": 3206,
      "pname": "新疆维吾尔自治区",
      "id": 3237,
      "cname": "博尔塔拉蒙古自治州",
      "lng": "82.074778",
      "lat": "44.903258"
    },
    {
      "pid": 3206,
      "pname": "新疆维吾尔自治区",
      "id": 3242,
      "cname": "巴音郭楞蒙古自治州",
      "lng": "86.150969",
      "lat": "41.768552"
    },
    {
      "pid": 3206,
      "pname": "新疆维吾尔自治区",
      "id": 3252,
      "cname": "阿克苏地区",
      "lng": "80.265068",
      "lat": "41.170712"
    },
    {
      "pid": 3206,
      "pname": "新疆维吾尔自治区",
      "id": 3262,
      "cname": "克孜勒苏柯尔克孜自治州",
      "lng": "76.172825",
      "lat": "39.713431"
    },
    {
      "pid": 3206,
      "pname": "新疆维吾尔自治区",
      "id": 3267,
      "cname": "喀什地区",
      "lng": "75.989138",
      "lat": "39.467664"
    },
    {
      "pid": 3206,
      "pname": "新疆维吾尔自治区",
      "id": 3280,
      "cname": "和田地区",
      "lng": "79.92533",
      "lat": "37.110687"
    },
    {
      "pid": 3206,
      "pname": "新疆维吾尔自治区",
      "id": 3289,
      "cname": "伊犁哈萨克自治州",
      "lng": "81.317946",
      "lat": "43.92186"
    },
    {
      "pid": 3206,
      "pname": "新疆维吾尔自治区",
      "id": 3301,
      "cname": "塔城地区",
      "lng": "82.985732",
      "lat": "46.746301"
    },
    {
      "pid": 3206,
      "pname": "新疆维吾尔自治区",
      "id": 3309,
      "cname": "阿勒泰地区",
      "lng": "88.13963",
      "lat": "47.848393"
    },
    {
      "pid": 3206,
      "pname": "新疆维吾尔自治区",
      "id": 3317,
      "cname": "直辖县级",
      "lng": "91.132212",
      "lat": "29.660361"
    },
    {
      "pid": 3325,
      "pname": "台湾",
      "id": 3326,
      "cname": "台北市",
      "lng": "121.565170",
      "lat": "25.037798"
    },
    {
      "pid": 3325,
      "pname": "台湾",
      "id": 3339,
      "cname": "高雄市",
      "lng": "120.311922",
      "lat": "22.620856"
    },
    {
      "pid": 3325,
      "pname": "台湾",
      "id": 3378,
      "cname": "基隆市",
      "lng": "121.746248",
      "lat": "25.130741"
    },
    {
      "pid": 3325,
      "pname": "台湾",
      "id": 3386,
      "cname": "台中市",
      "lng": "120.679040",
      "lat": "24.138620"
    },
    {
      "pid": 3325,
      "pname": "台湾",
      "id": 3416,
      "cname": "台南市",
      "lng": "120.279363",
      "lat": "23.172478"
    },
    {
      "pid": 3325,
      "pname": "台湾",
      "id": 3454,
      "cname": "新竹市",
      "lng": "120.968798",
      "lat": "24.806738"
    },
    {
      "pid": 3325,
      "pname": "台湾",
      "id": 3458,
      "cname": "嘉义市",
      "lng": "120.452538",
      "lat": "23.481568"
    },
    {
      "pid": 3325,
      "pname": "台湾",
      "id": 3461,
      "cname": "新北市",
      "lng": "121.465746",
      "lat": "25.012366"
    },
    {
      "pid": 3325,
      "pname": "台湾",
      "id": 3491,
      "cname": "宜兰县",
      "lng": "121.500000",
      "lat": "24.600000"
    },
    {
      "pid": 3325,
      "pname": "台湾",
      "id": 3504,
      "cname": "桃园县",
      "lng": "121.083000",
      "lat": "25.000000"
    },
    {
      "pid": 3325,
      "pname": "台湾",
      "id": 3518,
      "cname": "新竹县",
      "lng": "121.160000",
      "lat": "24.600000"
    },
    {
      "pid": 3325,
      "pname": "台湾",
      "id": 3532,
      "cname": "苗栗县",
      "lng": "120.750000",
      "lat": "24.500000"
    },
    {
      "pid": 3325,
      "pname": "台湾",
      "id": 3551,
      "cname": "彰化县",
      "lng": "120.416000",
      "lat": "24.000000"
    },
    {
      "pid": 3325,
      "pname": "台湾",
      "id": 3578,
      "cname": "南投县",
      "lng": "120.830000",
      "lat": "23.830000"
    },
    {
      "pid": 3325,
      "pname": "台湾",
      "id": 3592,
      "cname": "云林县",
      "lng": "120.250000",
      "lat": "23.750000"
    },
    {
      "pid": 3325,
      "pname": "台湾",
      "id": 3613,
      "cname": "嘉义县",
      "lng": "120.300000",
      "lat": "23.500000"
    },
    {
      "pid": 3325,
      "pname": "台湾",
      "id": 3632,
      "cname": "屏东县",
      "lng": "120.487928",
      "lat": "22.682802"
    },
    {
      "pid": 3325,
      "pname": "台湾",
      "id": 3666,
      "cname": "台东县",
      "lng": "120.916000",
      "lat": "23.000000"
    },
    {
      "pid": 3325,
      "pname": "台湾",
      "id": 3683,
      "cname": "花莲县",
      "lng": "121.300000",
      "lat": "23.830000"
    },
    {
      "pid": 3325,
      "pname": "台湾",
      "id": 3697,
      "cname": "澎湖县",
      "lng": "119.566417",
      "lat": "23.569733"
    },
    {
      "pid": 3325,
      "pname": "台湾",
      "id": 3704,
      "cname": "金门县",
      "lng": "118.317089",
      "lat": "24.432706"
    },
    {
      "pid": 3325,
      "pname": "台湾",
      "id": 3711,
      "cname": "连江县",
      "lng": "119.539704",
      "lat": "26.197364"
    },
    {
      "pid": 3716,
      "pname": "香港特别行政区",
      "id": 3717,
      "cname": "香港岛",
      "lng": "114.177314",
      "lat": "22.266416"
    },
    {
      "pid": 3716,
      "pname": "香港特别行政区",
      "id": 3722,
      "cname": "九龙",
      "lng": "114.17495",
      "lat": "22.327115"
    },
    {
      "pid": 3716,
      "pname": "香港特别行政区",
      "id": 3728,
      "cname": "新界",
      "lng": "114.202408",
      "lat": "22.341766"
    },
    {
      "pid": 3738,
      "pname": "澳门特别行政区",
      "id": 3739,
      "cname": "澳门半岛",
      "lng": "113.549134",
      "lat": "22.198751"
    },
    {
      "pid": 3738,
      "pname": "澳门特别行政区",
      "id": 3745,
      "cname": "氹仔岛",
      "lng": "113.577669",
      "lat": "22.156838"
    },
    {
      "pid": 3738,
      "pname": "澳门特别行政区",
      "id": 3747,
      "cname": "路环岛",
      "lng": "113.564857",
      "lat": "22.116226"
    },
    {
      "pid": 3749,
      "pname": "钓鱼岛",
      "id": null,
      "cname": null,
      "lng": null,
      "lat": null
    }
  ]
}